{
"type": "FeatureCollection",
"features": [
{ "type": "Feature", "properties": { "cfname": "SEAMEN?S HOSPITAL", "icu": 4, "isolbed": 12, "beds_ward": 5, "lat": 14.587556, "lng": 120.977748, "day_0": 21 }, "geometry": { "type": "Point", "coordinates": [ 120.977748, 14.587556 ] } },
{ "type": "Feature", "properties": { "cfname": "MEDICAL CENTER PARA?AQUE, INC.", "icu": 0, "isolbed": 19, "beds_ward": 0, "lat": 14.4582914, "lng": 121.033451, "day_0": 19 }, "geometry": { "type": "Point", "coordinates": [ 121.033451, 14.4582914 ] } },
{ "type": "Feature", "properties": { "cfname": "THE MEDICAL CITY", "icu": 20, "isolbed": 85, "beds_ward": 0, "lat": 14.5895499, "lng": 121.0692782, "day_0": 105 }, "geometry": { "type": "Point", "coordinates": [ 121.0692782, 14.5895499 ] } },
{ "type": "Feature", "properties": { "cfname": "WORD OF HOPE GENERAL HOSPITAL FOUNDATION, INC.", "icu": 0, "isolbed": 1, "beds_ward": 5, "lat": 14.719285, "lng": 121.0390189, "day_0": 6 }, "geometry": { "type": "Point", "coordinates": [ 121.0390189, 14.719285 ] } },
{ "type": "Feature", "properties": { "cfname": "VILLAROSA HOSPITAL, INC.", "icu": 0, "isolbed": 7, "beds_ward": 0, "lat": 14.6219457, "lng": 121.0661992, "day_0": 7 }, "geometry": { "type": "Point", "coordinates": [ 121.0661992, 14.6219457 ] } },
{ "type": "Feature", "properties": { "cfname": "ALABANG MEDICAL CENTER", "icu": 0, "isolbed": 1, "beds_ward": 5, "lat": 14.4275849, "lng": 121.0244408, "day_0": 6 }, "geometry": { "type": "Point", "coordinates": [ 121.0244408, 14.4275849 ] } },
{ "type": "Feature", "properties": { "cfname": "CHINESE GENERAL HOSPITAL & MEDICAL CENTER", "icu": 9, "isolbed": 92, "beds_ward": 60, "lat": 14.625592, "lng": 120.9886131, "day_0": 161 }, "geometry": { "type": "Point", "coordinates": [ 120.9886131, 14.625592 ] } },
{ "type": "Feature", "properties": { "cfname": "QUEENSBERRY HOSPITAL", "icu": 0, "isolbed": 0, "beds_ward": 2, "lat": 14.723859, "lng": 121.0397136, "day_0": 2 }, "geometry": { "type": "Point", "coordinates": [ 121.0397136, 14.723859 ] } },
{ "type": "Feature", "properties": { "cfname": "PHILIPPINE HEART CENTER", "icu": 13, "isolbed": 127, "beds_ward": 0, "lat": 14.6440237, "lng": 121.0481304, "day_0": 140 }, "geometry": { "type": "Point", "coordinates": [ 121.0481304, 14.6440237 ] } },
{ "type": "Feature", "properties": { "cfname": "VETERANS MEMORIAL MEDICAL CENTER", "icu": 23, "isolbed": 144, "beds_ward": 104, "lat": 14.6561184, "lng": 121.0400556, "day_0": 271 }, "geometry": { "type": "Point", "coordinates": [ 121.0400556, 14.6561184 ] } },
{ "type": "Feature", "properties": { "cfname": "HOLYLIFE HOSPITAL", "icu": 0, "isolbed": 2, "beds_ward": 2, "lat": 14.5920681, "lng": 121.095712, "day_0": 4 }, "geometry": { "type": "Point", "coordinates": [ 121.095712, 14.5920681 ] } },
{ "type": "Feature", "properties": { "cfname": "PASIG CITY CHILDREN?S HOSPITAL ? CHILD?S HOPE", "icu": 12, "isolbed": 7, "beds_ward": 95, "lat": 14.5621149, "lng": 121.0743209, "day_0": 114 }, "geometry": { "type": "Point", "coordinates": [ 121.0743209, 14.5621149 ] } },
{ "type": "Feature", "properties": { "cfname": "ST. JUDE GENERAL HOSPITAL & MEDICAL CENTER, INC.", "icu": 2, "isolbed": 3, "beds_ward": 13, "lat": 14.615786, "lng": 120.989022, "day_0": 18 }, "geometry": { "type": "Point", "coordinates": [ 120.989022, 14.615786 ] } },
{ "type": "Feature", "properties": { "cfname": "D.T. PROTACIO HOSPITAL", "icu": 0, "isolbed": 6, "beds_ward": 0, "lat": 14.5242582, "lng": 120.9967919, "day_0": 6 }, "geometry": { "type": "Point", "coordinates": [ 120.9967919, 14.5242582 ] } },
{ "type": "Feature", "properties": { "cfname": "UNIHEALTH PARA?AQUE HOSPITAL AND MEDICAL CENTER, INC.", "icu": 1, "isolbed": 1, "beds_ward": 30, "lat": 14.464536, "lng": 121.019618, "day_0": 32 }, "geometry": { "type": "Point", "coordinates": [ 121.019618, 14.464536 ] } },
{ "type": "Feature", "properties": { "cfname": "NATIONAL CENTER FOR MENTAL HEALTH", "icu": 0, "isolbed": 55, "beds_ward": 1205, "lat": 14.5810127, "lng": 121.0429164, "day_0": 1260 }, "geometry": { "type": "Point", "coordinates": [ 121.0429164, 14.5810127 ] } },
{ "type": "Feature", "properties": { "cfname": "OUR LADY OF LOURDES HOSPITAL", "icu": 1, "isolbed": 69, "beds_ward": 0, "lat": 14.5949547, "lng": 121.0225571, "day_0": 70 }, "geometry": { "type": "Point", "coordinates": [ 121.0225571, 14.5949547 ] } },
{ "type": "Feature", "properties": { "cfname": "OUR LADY OF GRACE HOSPITAL INC.", "icu": 0, "isolbed": 0, "beds_ward": 9, "lat": 14.64893, "lng": 120.981379, "day_0": 9 }, "geometry": { "type": "Point", "coordinates": [ 120.981379, 14.64893 ] } },
{ "type": "Feature", "properties": { "cfname": "AMISOLA MATERNITY AND CHILDRENS HOSPITAL", "icu": 0, "isolbed": 6, "beds_ward": 1, "lat": 14.6327112, "lng": 120.9784832, "day_0": 7 }, "geometry": { "type": "Point", "coordinates": [ 120.9784832, 14.6327112 ] } },
{ "type": "Feature", "properties": { "cfname": "ALLIED CARE EXPERTS (ACE) MEDICAL CENTER VALENZUELA, INC.", "icu": 12, "isolbed": 6, "beds_ward": 26, "lat": 14.715363, "lng": 120.9576404, "day_0": 44 }, "geometry": { "type": "Point", "coordinates": [ 120.9576404, 14.715363 ] } },
{ "type": "Feature", "properties": { "cfname": "MANILA NAVAL HOSPITAL", "icu": 0, "isolbed": 24, "beds_ward": 0, "lat": 14.5301095, "lng": 121.0315087, "day_0": 24 }, "geometry": { "type": "Point", "coordinates": [ 121.0315087, 14.5301095 ] } },
{ "type": "Feature", "properties": { "cfname": "ACEBEDO GENERAL HOSPITAL", "icu": 0, "isolbed": 1, "beds_ward": 4, "lat": 14.7187229, "lng": 121.0050807, "day_0": 5 }, "geometry": { "type": "Point", "coordinates": [ 121.0050807, 14.7187229 ] } },
{ "type": "Feature", "properties": { "cfname": "WORLD CITI MEDICAL CENTER, INC.", "icu": 0, "isolbed": 36, "beds_ward": 0, "lat": 14.6272442, "lng": 121.0633398, "day_0": 36 }, "geometry": { "type": "Point", "coordinates": [ 121.0633398, 14.6272442 ] } },
{ "type": "Feature", "properties": { "cfname": "MANILA DOCTORS HOSPITAL", "icu": 15, "isolbed": 70, "beds_ward": 0, "lat": 14.5820253, "lng": 120.9829349, "day_0": 85 }, "geometry": { "type": "Point", "coordinates": [ 120.9829349, 14.5820253 ] } },
{ "type": "Feature", "properties": { "cfname": "MEDICAL CENTER OF TAGUIG CITY, INC.", "icu": 0, "isolbed": 6, "beds_ward": 24, "lat": 14.5306614, "lng": 121.0654111, "day_0": 30 }, "geometry": { "type": "Point", "coordinates": [ 121.0654111, 14.5306614 ] } },
{ "type": "Feature", "properties": { "cfname": "J.P. SIOSON GENERAL HOSPITAL AND COLLEGES, INC", "icu": 0, "isolbed": 5, "beds_ward": 0, "lat": 14.6598002, "lng": 121.0252463, "day_0": 5 }, "geometry": { "type": "Point", "coordinates": [ 121.0252463, 14.6598002 ] } },
{ "type": "Feature", "properties": { "cfname": "ST. LUKE?S MEDICAL CENTER - GLOBAL CITY", "icu": 22, "isolbed": 7, "beds_ward": 101, "lat": 14.554936, "lng": 121.0482191, "day_0": 130 }, "geometry": { "type": "Point", "coordinates": [ 121.0482191, 14.554936 ] } },
{ "type": "Feature", "properties": { "cfname": "DR. JOSE N. RODRIGUEZ MEMORIAL HOSPITAL", "icu": 100, "isolbed": 400, "beds_ward": 0, "lat": 14.7667237, "lng": 121.0648419, "day_0": 500 }, "geometry": { "type": "Point", "coordinates": [ 121.0648419, 14.7667237 ] } },
{ "type": "Feature", "properties": { "cfname": "QUEZON CITY GENERAL HOSPITAL", "icu": 29, "isolbed": 81, "beds_ward": 0, "lat": 14.6611598, "lng": 121.0182091, "day_0": 110 }, "geometry": { "type": "Point", "coordinates": [ 121.0182091, 14.6611598 ] } },
{ "type": "Feature", "properties": { "cfname": "F.Y. MANALO MEDICAL FOUNDATION, INC.", "icu": 5, "isolbed": 0, "beds_ward": 69, "lat": 14.7162064, "lng": 121.0565942, "day_0": 74 }, "geometry": { "type": "Point", "coordinates": [ 121.0565942, 14.7162064 ] } },
{ "type": "Feature", "properties": { "cfname": "ST. CAMILLUS MEDICAL CENTER", "icu": 1, "isolbed": 12, "beds_ward": 0, "lat": 14.6121254, "lng": 121.091848, "day_0": 13 }, "geometry": { "type": "Point", "coordinates": [ 121.091848, 14.6121254 ] } },
{ "type": "Feature", "properties": { "cfname": "FAMILY HEALTHCARE HOSPITAL-THE REINE-MERE MEDICAL FACILITIES", "icu": 0, "isolbed": 0, "beds_ward": 0, "lat": 14.5764261, "lng": 121.0851562, "day_0": 0 }, "geometry": { "type": "Point", "coordinates": [ 121.0851562, 14.5764261 ] } },
{ "type": "Feature", "properties": { "cfname": "DR. MONTANO G. RAMOS GENERAL HOSPITAL CORPORATION", "icu": 0, "isolbed": 8, "beds_ward": 0, "lat": 14.6595055, "lng": 121.0235949, "day_0": 8 }, "geometry": { "type": "Point", "coordinates": [ 121.0235949, 14.6595055 ] } },
{ "type": "Feature", "properties": { "cfname": "E. ZARATE HOSPITAL", "icu": 0, "isolbed": 3, "beds_ward": 2, "lat": 14.4553372, "lng": 120.9945208, "day_0": 5 }, "geometry": { "type": "Point", "coordinates": [ 120.9945208, 14.4553372 ] } },
{ "type": "Feature", "properties": { "cfname": "OSPITAL NG MAYNILA MEDICAL CENTER", "icu": 10, "isolbed": 56, "beds_ward": 84, "lat": 14.5640798, "lng": 120.9863884, "day_0": 150 }, "geometry": { "type": "Point", "coordinates": [ 120.9863884, 14.5640798 ] } },
{ "type": "Feature", "properties": { "cfname": "SABATER HOSPITAL", "icu": 0, "isolbed": 1, "beds_ward": 0, "lat": 14.5600942, "lng": 121.0828629, "day_0": 1 }, "geometry": { "type": "Point", "coordinates": [ 121.0828629, 14.5600942 ] } },
{ "type": "Feature", "properties": { "cfname": "TONDO MEDICAL CENTER", "icu": 18, "isolbed": 30, "beds_ward": 96, "lat": 14.6348716, "lng": 120.9630926, "day_0": 144 }, "geometry": { "type": "Point", "coordinates": [ 120.9630926, 14.6348716 ] } },
{ "type": "Feature", "properties": { "cfname": "ALFONSO SPECIALIST HOSPITAL", "icu": 0, "isolbed": 0, "beds_ward": 7, "lat": 14.590103, "lng": 121.08476, "day_0": 7 }, "geometry": { "type": "Point", "coordinates": [ 121.08476, 14.590103 ] } },
{ "type": "Feature", "properties": { "cfname": "GARCIA GENERAL HOSPITAL", "icu": 0, "isolbed": 0, "beds_ward": 0, "lat": 14.6512194, "lng": 121.1110774, "day_0": 0 }, "geometry": { "type": "Point", "coordinates": [ 121.1110774, 14.6512194 ] } },
{ "type": "Feature", "properties": { "cfname": "ROSARIO MACLANG BAUTISTA GENERAL HOSPITAL", "icu": 13, "isolbed": 13, "beds_ward": 23, "lat": 14.6860196, "lng": 121.0893914, "day_0": 49 }, "geometry": { "type": "Point", "coordinates": [ 121.0893914, 14.6860196 ] } },
{ "type": "Feature", "properties": { "cfname": "UNIVERSITY OF THE EAST RAMON MAGSAYSAY MEMORIAL MEDICAL CENT", "icu": 10, "isolbed": 11, "beds_ward": 16, "lat": 14.6071443, "lng": 121.0207325, "day_0": 37 }, "geometry": { "type": "Point", "coordinates": [ 121.0207325, 14.6071443 ] } },
{ "type": "Feature", "properties": { "cfname": "OSPITAL NG TONDO", "icu": 0, "isolbed": 8, "beds_ward": 14, "lat": 14.625964, "lng": 120.978381, "day_0": 22 }, "geometry": { "type": "Point", "coordinates": [ 120.978381, 14.625964 ] } },
{ "type": "Feature", "properties": { "cfname": "NODADO GENERAL HOSPITAL", "icu": 0, "isolbed": 6, "beds_ward": 6, "lat": 14.7514408, "lng": 121.0387401, "day_0": 12 }, "geometry": { "type": "Point", "coordinates": [ 121.0387401, 14.7514408 ] } },
{ "type": "Feature", "properties": { "cfname": "SAN JUAN MEDICAL CENTER", "icu": 0, "isolbed": 22, "beds_ward": 53, "lat": 14.6065754, "lng": 121.0236011, "day_0": 75 }, "geometry": { "type": "Point", "coordinates": [ 121.0236011, 14.6065754 ] } },
{ "type": "Feature", "properties": { "cfname": "TAGUIG-PATEROS DISTRICT HOSPITAL", "icu": 0, "isolbed": 50, "beds_ward": 80, "lat": 14.5108121, "lng": 121.0341273, "day_0": 130 }, "geometry": { "type": "Point", "coordinates": [ 121.0341273, 14.5108121 ] } },
{ "type": "Feature", "properties": { "cfname": "ASIAN HOSPITAL INC.", "icu": 18, "isolbed": 63, "beds_ward": 0, "lat": 14.4134655, "lng": 121.0435335, "day_0": 81 }, "geometry": { "type": "Point", "coordinates": [ 121.0435335, 14.4134655 ] } },
{ "type": "Feature", "properties": { "cfname": "FATIMA UNIVERSITY MEDICAL CENTER CORPORATION", "icu": 7, "isolbed": 24, "beds_ward": 12, "lat": 14.6780548, "lng": 120.9802868, "day_0": 43 }, "geometry": { "type": "Point", "coordinates": [ 120.9802868, 14.6780548 ] } },
{ "type": "Feature", "properties": { "cfname": "MARY CHILES GENERAL HOSPITAL, INC.", "icu": 0, "isolbed": 52, "beds_ward": 3, "lat": 14.603269, "lng": 120.989761, "day_0": 55 }, "geometry": { "type": "Point", "coordinates": [ 120.989761, 14.603269 ] } },
{ "type": "Feature", "properties": { "cfname": "ALABANG MEDICAL CLINIC", "icu": 0, "isolbed": 9, "beds_ward": 0, "lat": 14.4193084, "lng": 121.0500636, "day_0": 9 }, "geometry": { "type": "Point", "coordinates": [ 121.0500636, 14.4193084 ] } },
{ "type": "Feature", "properties": { "cfname": "TRINITY WOMAN AND CHILD CENTER (THE BIRTHPLACE)", "icu": 0, "isolbed": 6, "beds_ward": 0, "lat": 14.584378, "lng": 121.017462, "day_0": 6 }, "geometry": { "type": "Point", "coordinates": [ 121.017462, 14.584378 ] } },
{ "type": "Feature", "properties": { "cfname": "JOSE R. REYES MEMORIAL MEDICAL CENTER", "icu": 7, "isolbed": 65, "beds_ward": 63, "lat": 14.6143273, "lng": 120.9822566, "day_0": 135 }, "geometry": { "type": "Point", "coordinates": [ 120.9822566, 14.6143273 ] } },
{ "type": "Feature", "properties": { "cfname": "CARDINAL SANTOS MEDICAL CENTER", "icu": 8, "isolbed": 78, "beds_ward": 0, "lat": 14.5977862, "lng": 121.0455347, "day_0": 86 }, "geometry": { "type": "Point", "coordinates": [ 121.0455347, 14.5977862 ] } },
{ "type": "Feature", "properties": { "cfname": "CALALANG GENERAL HOSPITAL", "icu": 0, "isolbed": 1, "beds_ward": 0, "lat": 14.672606, "lng": 120.9823266, "day_0": 1 }, "geometry": { "type": "Point", "coordinates": [ 120.9823266, 14.672606 ] } },
{ "type": "Feature", "properties": { "cfname": "NORTH CALOOCAN DOCTORS HOSPITAL", "icu": 0, "isolbed": 0, "beds_ward": 9, "lat": 14.766024, "lng": 121.0847039, "day_0": 9 }, "geometry": { "type": "Point", "coordinates": [ 121.0847039, 14.766024 ] } },
{ "type": "Feature", "properties": { "cfname": "NOVALICHES DISTRICT HOSPITAL", "icu": 0, "isolbed": 41, "beds_ward": 0, "lat": 14.700472, "lng": 121.034431, "day_0": 41 }, "geometry": { "type": "Point", "coordinates": [ 121.034431, 14.700472 ] } },
{ "type": "Feature", "properties": { "cfname": "ADVENTIST MEDICAL CENTER MANILA", "icu": 4, "isolbed": 29, "beds_ward": 0, "lat": 14.5557941, "lng": 120.9955069, "day_0": 33 }, "geometry": { "type": "Point", "coordinates": [ 120.9955069, 14.5557941 ] } },
{ "type": "Feature", "properties": { "cfname": "Bernardino General Hospital II", "icu": 0, "isolbed": 7, "beds_ward": 0, "lat": 14.7401285, "lng": 121.0467876, "day_0": 7 }, "geometry": { "type": "Point", "coordinates": [ 121.0467876, 14.7401285 ] } },
{ "type": "Feature", "properties": { "cfname": "AIR FORCE GENERAL HOSPITAL", "icu": 0, "isolbed": 10, "beds_ward": 37, "lat": 14.516937, "lng": 121.019969, "day_0": 47 }, "geometry": { "type": "Point", "coordinates": [ 121.019969, 14.516937 ] } },
{ "type": "Feature", "properties": { "cfname": "LAS PI?AS CITY MEDICAL CENTER, INC.", "icu": 2, "isolbed": 23, "beds_ward": 0, "lat": 14.4297941, "lng": 121.0034361, "day_0": 25 }, "geometry": { "type": "Point", "coordinates": [ 121.0034361, 14.4297941 ] } },
{ "type": "Feature", "properties": { "cfname": "DR. JESUS C. DELGADO MEMORIAL HOSPITAL", "icu": 0, "isolbed": 16, "beds_ward": 0, "lat": 14.6276586, "lng": 121.0347886, "day_0": 16 }, "geometry": { "type": "Point", "coordinates": [ 121.0347886, 14.6276586 ] } },
{ "type": "Feature", "properties": { "cfname": "MCPC ST THERESE OF LISIEUX DOCTORS HOSPITAL", "icu": 0, "isolbed": 1, "beds_ward": 4, "lat": 14.5766205, "lng": 121.0854841, "day_0": 5 }, "geometry": { "type": "Point", "coordinates": [ 121.0854841, 14.5766205 ] } },
{ "type": "Feature", "properties": { "cfname": "MEDICAL CENTER MUNTINLUPA, INC.", "icu": 2, "isolbed": 8, "beds_ward": 23, "lat": 14.4033997, "lng": 121.0473533, "day_0": 33 }, "geometry": { "type": "Point", "coordinates": [ 121.047353299999983, 14.4033997 ] } },
{ "type": "Feature", "properties": { "cfname": "LUNG CENTER OF THE PHILIPPINES", "icu": 64, "isolbed": 10, "beds_ward": 41, "lat": 14.6477049, "lng": 121.0458148, "day_0": 115 }, "geometry": { "type": "Point", "coordinates": [ 121.0458148, 14.6477049 ] } },
{ "type": "Feature", "properties": { "cfname": "DR. VICTOR R. POTENCIANO MEDICAL CENTER", "icu": 4, "isolbed": 7, "beds_ward": 40, "lat": 14.5770225, "lng": 121.0500827, "day_0": 51 }, "geometry": { "type": "Point", "coordinates": [ 121.0500827, 14.5770225 ] } },
{ "type": "Feature", "properties": { "cfname": "SAN LAZARO HOSPITAL", "icu": 9, "isolbed": 142, "beds_ward": 0, "lat": 14.6137163, "lng": 120.9809048, "day_0": 151 }, "geometry": { "type": "Point", "coordinates": [ 120.9809048, 14.6137163 ] } },
{ "type": "Feature", "properties": { "cfname": "UP-PHILIPPINE GENERAL HOSPITAL", "icu": 26, "isolbed": 117, "beds_ward": 135, "lat": 14.5771007, "lng": 120.9857861, "day_0": 278 }, "geometry": { "type": "Point", "coordinates": [ 120.9857861, 14.5771007 ] } },
{ "type": "Feature", "properties": { "cfname": "ST. CHRISTIANA MATERNITY HOSPITAL", "icu": 0, "isolbed": 3, "beds_ward": 0, "lat": 14.6039035, "lng": 121.102859, "day_0": 3 }, "geometry": { "type": "Point", "coordinates": [ 121.102859, 14.6039035 ] } },
{ "type": "Feature", "properties": { "cfname": "MARIKINA VALLEY MEDICAL CENTER", "icu": 0, "isolbed": 34, "beds_ward": 0, "lat": 14.6347295, "lng": 121.1039907, "day_0": 34 }, "geometry": { "type": "Point", "coordinates": [ 121.1039907, 14.6347295 ] } },
{ "type": "Feature", "properties": { "cfname": "BERMUDEZ POLYCLINIC HOSPITAL, INC", "icu": 0, "isolbed": 1, "beds_ward": 5, "lat": 14.7700605, "lng": 121.0782644, "day_0": 6 }, "geometry": { "type": "Point", "coordinates": [ 121.0782644, 14.7700605 ] } },
{ "type": "Feature", "properties": { "cfname": "OSPITAL NG SAMPALOC", "icu": 0, "isolbed": 9, "beds_ward": 31, "lat": 14.607878, "lng": 120.9967203, "day_0": 40 }, "geometry": { "type": "Point", "coordinates": [ 120.9967203, 14.607878 ] } },
{ "type": "Feature", "properties": { "cfname": "ST. LUKE?S MEDICAL CENTER", "icu": 11, "isolbed": 94, "beds_ward": 0, "lat": 14.554936, "lng": 121.0482191, "day_0": 105 }, "geometry": { "type": "Point", "coordinates": [ 121.0482191, 14.554936 ] } },
{ "type": "Feature", "properties": { "cfname": "FEU - DR. NICANOR REYES MEDICAL FOUNDATION, INC.", "icu": 0, "isolbed": 9, "beds_ward": 26, "lat": 14.6986356, "lng": 121.0671184, "day_0": 35 }, "geometry": { "type": "Point", "coordinates": [ 121.0671184, 14.6986356 ] } },
{ "type": "Feature", "properties": { "cfname": "CRUZ-RABE MATERNITY AND GENERAL HOSPITAL", "icu": 0, "isolbed": 0, "beds_ward": 8, "lat": 14.5292313, "lng": 121.0706127, "day_0": 8 }, "geometry": { "type": "Point", "coordinates": [ 121.0706127, 14.5292313 ] } },
{ "type": "Feature", "properties": { "cfname": "ALABANG MEDICAL CLINIC - MUNTINLUPA BRANCH", "icu": 0, "isolbed": 1, "beds_ward": 7, "lat": 14.3910771, "lng": 121.0443311, "day_0": 8 }, "geometry": { "type": "Point", "coordinates": [ 121.0443311, 14.3910771 ] } },
{ "type": "Feature", "properties": { "cfname": "OSPITAL NG MAKATI", "icu": 14, "isolbed": 131, "beds_ward": 10, "lat": 14.5465028, "lng": 121.0617574, "day_0": 155 }, "geometry": { "type": "Point", "coordinates": [ 121.0617574, 14.5465028 ] } },
{ "type": "Feature", "properties": { "cfname": "POPE JOHN PAUL II HOSPITAL AND MEDICAL CENTER INC.", "icu": 0, "isolbed": 6, "beds_ward": 35, "lat": 14.4432195, "lng": 120.9963143, "day_0": 41 }, "geometry": { "type": "Point", "coordinates": [ 120.9963143, 14.4432195 ] } },
{ "type": "Feature", "properties": { "cfname": "METROPOLITAN MEDICAL CENTER", "icu": 13, "isolbed": 70, "beds_ward": 11, "lat": 14.6096242, "lng": 120.9784419, "day_0": 94 }, "geometry": { "type": "Point", "coordinates": [ 120.9784419, 14.6096242 ] } },
{ "type": "Feature", "properties": { "cfname": "VALENZUELA MEDICAL CENTER", "icu": 7, "isolbed": 2, "beds_ward": 53, "lat": 14.6898788, "lng": 120.978154, "day_0": 62 }, "geometry": { "type": "Point", "coordinates": [ 120.978154, 14.6898788 ] } },
{ "type": "Feature", "properties": { "cfname": "CAPITOL MEDICAL CENTER, INC.", "icu": 7, "isolbed": 15, "beds_ward": 9, "lat": 14.6342467, "lng": 121.0228414, "day_0": 31 }, "geometry": { "type": "Point", "coordinates": [ 121.0228414, 14.6342467 ] } },
{ "type": "Feature", "properties": { "cfname": "MARIKINA ST. VINCENT GENERAL HOSPITAL, INC.", "icu": 2, "isolbed": 10, "beds_ward": 0, "lat": 14.6511832, "lng": 121.1073128, "day_0": 12 }, "geometry": { "type": "Point", "coordinates": [ 121.1073128, 14.6511832 ] } },
{ "type": "Feature", "properties": { "cfname": "PNP GENERAL HOSPITAL", "icu": 0, "isolbed": 0, "beds_ward": 0, "lat": 14.6156163, "lng": 121.0519252, "day_0": 0 }, "geometry": { "type": "Point", "coordinates": [ 121.0519252, 14.6156163 ] } },
{ "type": "Feature", "properties": { "cfname": "SAN LORENZO HOSPITAL HEALTH MANAGEMENT CO., INC.", "icu": 0, "isolbed": 0, "beds_ward": 5, "lat": 14.73509, "lng": 121.033594, "day_0": 5 }, "geometry": { "type": "Point", "coordinates": [ 121.033594, 14.73509 ] } },
{ "type": "Feature", "properties": { "cfname": "ALABANG MEDICAL CLINIC - LAS PIÑAS BRANCH", "icu": 0, "isolbed": 6, "beds_ward": 0, "lat": 14.4428476, "lng": 120.996961, "day_0": 6 }, "geometry": { "type": "Point", "coordinates": [ 120.996961, 14.4428476 ] } },
{ "type": "Feature", "properties": { "cfname": "SDS MEDICAL CENTER", "icu": 0, "isolbed": 10, "beds_ward": 0, "lat": 14.6394204, "lng": 121.1099639, "day_0": 10 }, "geometry": { "type": "Point", "coordinates": [ 121.1099639, 14.6394204 ] } },
{ "type": "Feature", "properties": { "cfname": "SALVE REGINA GENERAL HOSPITAL INC.", "icu": 0, "isolbed": 6, "beds_ward": 9, "lat": 14.6199475, "lng": 121.0963324, "day_0": 15 }, "geometry": { "type": "Point", "coordinates": [ 121.0963324, 14.6199475 ] } },
{ "type": "Feature", "properties": { "cfname": "GEN. MIGUEL M. MALVAR MEDICAL FOUNDATION HOSPITAL", "icu": 0, "isolbed": 4, "beds_ward": 0, "lat": 14.6674046, "lng": 121.0726699, "day_0": 4 }, "geometry": { "type": "Point", "coordinates": [ 121.0726699, 14.6674046 ] } },
{ "type": "Feature", "properties": { "cfname": "MISSION HOSPITAL", "icu": 0, "isolbed": 3, "beds_ward": 10, "lat": 14.5898229, "lng": 121.0975159, "day_0": 13 }, "geometry": { "type": "Point", "coordinates": [ 121.0975159, 14.5898229 ] } },
{ "type": "Feature", "properties": { "cfname": "NOVALICHES GENERAL HOSPITAL", "icu": 0, "isolbed": 18, "beds_ward": 0, "lat": 14.7094976, "lng": 121.0390189, "day_0": 18 }, "geometry": { "type": "Point", "coordinates": [ 121.0390189, 14.7094976 ] } },
{ "type": "Feature", "properties": { "cfname": "PACIFIC GLOBAL MEDICAL CENTER, INC.", "icu": 0, "isolbed": 2, "beds_ward": 30, "lat": 14.688493, "lng": 121.029989, "day_0": 32 }, "geometry": { "type": "Point", "coordinates": [ 121.029989, 14.688493 ] } },
{ "type": "Feature", "properties": { "cfname": "ALLIED CARE EXPERTS (ACE) MEDICAL CENTER-PATEROS, INC.", "icu": 3, "isolbed": 15, "beds_ward": 0, "lat": 14.5440787, "lng": 121.0652003, "day_0": 18 }, "geometry": { "type": "Point", "coordinates": [ 121.0652003, 14.5440787 ] } },
{ "type": "Feature", "properties": { "cfname": "UNIVERSITY OF PERPETUAL HELP DALTA MEDICAL CENTER, INC.", "icu": 14, "isolbed": 36, "beds_ward": 0, "lat": 14.4480913, "lng": 120.9858845, "day_0": 50 }, "geometry": { "type": "Point", "coordinates": [ 120.9858845, 14.4480913 ] } },
{ "type": "Feature", "properties": { "cfname": "VALENZUELA CITICARE MEDICAL CENTER-TIMOG HILAGA PROVIDENCE G", "icu": 0, "isolbed": 14, "beds_ward": 0, "lat": 14.6956448, "lng": 120.9631784, "day_0": 14 }, "geometry": { "type": "Point", "coordinates": [ 120.9631784, 14.6956448 ] } },
{ "type": "Feature", "properties": { "cfname": "OSPITAL NG MUNTINLUPA", "icu": 9, "isolbed": 61, "beds_ward": 0, "lat": 14.414481, "lng": 121.044059, "day_0": 70 }, "geometry": { "type": "Point", "coordinates": [ 121.044059, 14.414481 ] } },
{ "type": "Feature", "properties": { "cfname": "ST. CLARE?S MEDICAL CENTER, INC.", "icu": 2, "isolbed": 10, "beds_ward": 3, "lat": 14.562984, "lng": 121.0013004, "day_0": 15 }, "geometry": { "type": "Point", "coordinates": [ 121.0013004, 14.562984 ] } },
{ "type": "Feature", "properties": { "cfname": "UNITED DOCTORS MEDICAL CENTER", "icu": 0, "isolbed": 7, "beds_ward": 2, "lat": 14.6170544, "lng": 121.0019352, "day_0": 9 }, "geometry": { "type": "Point", "coordinates": [ 121.0019352, 14.6170544 ] } },
{ "type": "Feature", "properties": { "cfname": "METRO NORTH MEDICAL CENTER AND HOSPITAL, INC.", "icu": 1, "isolbed": 14, "beds_ward": 7, "lat": 14.668842, "lng": 121.033579, "day_0": 22 }, "geometry": { "type": "Point", "coordinates": [ 121.033579, 14.668842 ] } },
{ "type": "Feature", "properties": { "cfname": "PERPETUAL SUCCOR HOSPITAL AND MATERNITY INC.", "icu": 0, "isolbed": 1, "beds_ward": 18, "lat": 14.608163, "lng": 120.99242, "day_0": 19 }, "geometry": { "type": "Point", "coordinates": [ 120.99242, 14.608163 ] } },
{ "type": "Feature", "properties": { "cfname": "A. ZARATE GENERAL HOSPITAL", "icu": 0, "isolbed": 6, "beds_ward": 0, "lat": 14.4685359, "lng": 120.980585, "day_0": 6 }, "geometry": { "type": "Point", "coordinates": [ 120.980585, 14.4685359 ] } },
{ "type": "Feature", "properties": { "cfname": "RESEARCH INSTITUTE FOR TROPICAL MEDICINE", "icu": 2, "isolbed": 12, "beds_ward": 0, "lat": 14.4098693, "lng": 121.0372225, "day_0": 14 }, "geometry": { "type": "Point", "coordinates": [ 121.0372225, 14.4098693 ] } },
{ "type": "Feature", "properties": { "cfname": "MAKATI MEDICAL CENTER", "icu": 18, "isolbed": 111, "beds_ward": 0, "lat": 14.5590246, "lng": 121.0146013, "day_0": 129 }, "geometry": { "type": "Point", "coordinates": [ 121.0146013, 14.5590246 ] } },
{ "type": "Feature", "properties": { "cfname": "STA. ANA HOSPITAL", "icu": 6, "isolbed": 144, "beds_ward": 0, "lat": 14.583335, "lng": 121.016499, "day_0": 150 }, "geometry": { "type": "Point", "coordinates": [ 121.016499, 14.583335 ] } },
{ "type": "Feature", "properties": { "cfname": "QUEZON INSTITUTE", "icu": 0, "isolbed": 1, "beds_ward": 3, "lat": 14.6177638, "lng": 121.0129499, "day_0": 4 }, "geometry": { "type": "Point", "coordinates": [ 121.0129499, 14.6177638 ] } },
{ "type": "Feature", "properties": { "cfname": "QUIRINO MEMORIAL MEDICAL CENTER", "icu": 10, "isolbed": 62, "beds_ward": 67, "lat": 14.6222558, "lng": 121.0728482, "day_0": 139 }, "geometry": { "type": "Point", "coordinates": [ 121.0728482, 14.6222558 ] } },
{ "type": "Feature", "properties": { "cfname": "UROLOGY CENTER OF THE PHILIPPINES", "icu": 0, "isolbed": 0, "beds_ward": 0, "lat": 14.6419932, "lng": 121.0536151, "day_0": 0 }, "geometry": { "type": "Point", "coordinates": [ 121.0536151, 14.6419932 ] } },
{ "type": "Feature", "properties": { "cfname": "THE PREMIER MEDICAL CENTER", "icu": 1, "isolbed": 5, "beds_ward": 10, "lat": 14.4883843, "lng": 120.9927341, "day_0": 16 }, "geometry": { "type": "Point", "coordinates": [ 120.9927341, 14.4883843 ] } },
{ "type": "Feature", "properties": { "cfname": "EAST AVENUE MEDICAL CENTER", "icu": 60, "isolbed": 201, "beds_ward": 0, "lat": 14.6421672, "lng": 121.0478702, "day_0": 261 }, "geometry": { "type": "Point", "coordinates": [ 121.0478702, 14.6421672 ] } },
{ "type": "Feature", "properties": { "cfname": "VT MATERNITY HOSPITAL", "icu": 0, "isolbed": 1, "beds_ward": 0, "lat": 14.637067, "lng": 121.099507, "day_0": 1 }, "geometry": { "type": "Point", "coordinates": [ 121.099507, 14.637067 ] } },
{ "type": "Feature", "properties": { "cfname": "DR. SABILI HEALTH SERVICES CORPORATION", "icu": 0, "isolbed": 4, "beds_ward": 8, "lat": 14.4889228, "lng": 121.0578114, "day_0": 12 }, "geometry": { "type": "Point", "coordinates": [ 121.0578114, 14.4889228 ] } },
{ "type": "Feature", "properties": { "cfname": "DE LOS SANTOS MEDICAL CENTER", "icu": 8, "isolbed": 18, "beds_ward": 19, "lat": 14.6200907, "lng": 121.0177773, "day_0": 45 }, "geometry": { "type": "Point", "coordinates": [ 121.0177773, 14.6200907 ] } },
{ "type": "Feature", "properties": { "cfname": "NATIONAL KIDNEY AND TRANSPLANT INSTITUTE", "icu": 7, "isolbed": 100, "beds_ward": 30, "lat": 14.6473447, "lng": 121.0473288, "day_0": 137 }, "geometry": { "type": "Point", "coordinates": [ 121.0473288, 14.6473447 ] } },
{ "type": "Feature", "properties": { "cfname": "GAT ANDRES BONIFACIO MEMORIAL MEDICAL CENTER", "icu": 0, "isolbed": 0, "beds_ward": 100, "lat": 14.6010315, "lng": 120.9647023, "day_0": 100 }, "geometry": { "type": "Point", "coordinates": [ 120.9647023, 14.6010315 ] } },
{ "type": "Feature", "properties": { "cfname": "MEDICAL CENTER MANILA, INC.", "icu": 5, "isolbed": 52, "beds_ward": 0, "lat": 14.5825352, "lng": 120.9856015, "day_0": 57 }, "geometry": { "type": "Point", "coordinates": [ 120.9856015, 14.5825352 ] } },
{ "type": "Feature", "properties": { "cfname": "COMMONWEALTH HOSPITAL AND MEDICAL CENTER", "icu": 3, "isolbed": 31, "beds_ward": 31, "lat": 14.7313248, "lng": 121.0606761, "day_0": 65 }, "geometry": { "type": "Point", "coordinates": [ 121.0606761, 14.7313248 ] } },
{ "type": "Feature", "properties": { "cfname": "DIVINE HEART MEDICAL SERVICE AND DEVELOPMENT COOPERATIVE HOS", "icu": 0, "isolbed": 7, "beds_ward": 0, "lat": 14.722041, "lng": 121.035899, "day_0": 7 }, "geometry": { "type": "Point", "coordinates": [ 121.035899, 14.722041 ] } },
{ "type": "Feature", "properties": { "cfname": "SAN JUAN DE DIOS EDUCATIONAL FOUNDATION, INC.", "icu": 3, "isolbed": 27, "beds_ward": 0, "lat": 14.5378892, "lng": 120.9930321, "day_0": 30 }, "geometry": { "type": "Point", "coordinates": [ 120.9930321, 14.5378892 ] } },
{ "type": "Feature", "properties": { "cfname": "DILIMAN DOCTORS HOSPITAL, INC. (new)", "icu": 3, "isolbed": 6, "beds_ward": 26, "lat": 14.6684416, "lng": 121.0760803, "day_0": 35 }, "geometry": { "type": "Point", "coordinates": [ 121.0760803, 14.6684416 ] } },
{ "type": "Feature", "properties": { "cfname": "ST. ANTHONY MEDICAL CENTER OF MARIKINA, INC.", "icu": 0, "isolbed": 8, "beds_ward": 0, "lat": 14.6244715, "lng": 121.1028413, "day_0": 8 }, "geometry": { "type": "Point", "coordinates": [ 121.1028413, 14.6244715 ] } },
{ "type": "Feature", "properties": { "cfname": "FAIRVIEW GENERAL HOSPITAL, INC.", "icu": 0, "isolbed": 14, "beds_ward": 0, "lat": 14.7056037, "lng": 121.0719949, "day_0": 14 }, "geometry": { "type": "Point", "coordinates": [ 121.0719949, 14.7056037 ] } },
{ "type": "Feature", "properties": { "cfname": "MANDALUYONG CITY MEDICAL CENTER", "icu": 4, "isolbed": 45, "beds_ward": 26, "lat": 14.5762966, "lng": 121.0352591, "day_0": 75 }, "geometry": { "type": "Point", "coordinates": [ 121.0352591, 14.5762966 ] } },
{ "type": "Feature", "properties": { "cfname": "RECUENCO GENERAL HOSPITAL, INC.", "icu": 0, "isolbed": 6, "beds_ward": 5, "lat": 14.5133646, "lng": 121.059499, "day_0": 11 }, "geometry": { "type": "Point", "coordinates": [ 121.059499, 14.5133646 ] } },
{ "type": "Feature", "properties": { "cfname": "PROVIDENCE HOSPITAL, INC.", "icu": 5, "isolbed": 1, "beds_ward": 14, "lat": 14.6411655, "lng": 121.0317779, "day_0": 20 }, "geometry": { "type": "Point", "coordinates": [ 121.0317779, 14.6411655 ] } },
{ "type": "Feature", "properties": { "cfname": "SAN LORENZO RUIZ WOMEN'S HOSPITAL", "icu": 2, "isolbed": 5, "beds_ward": 19, "lat": 14.6941625, "lng": 120.9563454, "day_0": 26 }, "geometry": { "type": "Point", "coordinates": [ 120.9563454, 14.6941625 ] } },
{ "type": "Feature", "properties": { "cfname": "HOSPITAL OF THE INFANT JESUS MEDICAL CENTER (formerly: Chile", "icu": 0, "isolbed": 0, "beds_ward": 42, "lat": 14.6141841, "lng": 120.9891977, "day_0": 42 }, "geometry": { "type": "Point", "coordinates": [ 120.9891977, 14.6141841 ] } },
{ "type": "Feature", "properties": { "cfname": "MARTINEZ MEMORIAL HOSPITAL", "icu": 0, "isolbed": 10, "beds_ward": 0, "lat": 14.6384367, "lng": 120.9757357, "day_0": 10 }, "geometry": { "type": "Point", "coordinates": [ 120.9757357, 14.6384367 ] } },
{ "type": "Feature", "properties": { "cfname": "MCU-FDT MEDICAL FOUNDATION HOSPITAL", "icu": 3, "isolbed": 21, "beds_ward": 0, "lat": 14.6576691, "lng": 120.9872584, "day_0": 24 }, "geometry": { "type": "Point", "coordinates": [ 120.9872584, 14.6576691 ] } },
{ "type": "Feature", "properties": { "cfname": "DE OCAMPO MEMORIAL MEDICAL CENTER", "icu": 0, "isolbed": 6, "beds_ward": 0, "lat": 14.599814, "lng": 120.9997413, "day_0": 6 }, "geometry": { "type": "Point", "coordinates": [ 120.9997413, 14.599814 ] } },
{ "type": "Feature", "properties": { "cfname": "AMANG RODRIGUEZ MEMORIAL MEDICAL CENTER", "icu": 5, "isolbed": 45, "beds_ward": 45, "lat": 14.6358837, "lng": 121.0982344, "day_0": 95 }, "geometry": { "type": "Point", "coordinates": [ 121.0982344, 14.6358837 ] } },
{ "type": "Feature", "properties": { "cfname": "PASIG DOCTORS MEDICAL CENTER INC.", "icu": 3, "isolbed": 13, "beds_ward": 0, "lat": 14.6006858, "lng": 121.0920941, "day_0": 16 }, "geometry": { "type": "Point", "coordinates": [ 121.0920941, 14.6006858 ] } },
{ "type": "Feature", "properties": { "cfname": "UNIVERSITY OF SANTO TOMAS HOSPITAL", "icu": 2, "isolbed": 20, "beds_ward": 37, "lat": 14.6114265, "lng": 120.9902019, "day_0": 59 }, "geometry": { "type": "Point", "coordinates": [ 120.9902019, 14.6114265 ] } },
{ "type": "Feature", "properties": { "cfname": "MARY JOHNSTON HOSPITAL, INC.", "icu": 0, "isolbed": 23, "beds_ward": 13, "lat": 14.608999, "lng": 120.966283, "day_0": 36 }, "geometry": { "type": "Point", "coordinates": [ 120.966283, 14.608999 ] } },
{ "type": "Feature", "properties": { "cfname": "UHBI-PARA?AQUE DOCTORS HOSPITAL, INC.", "icu": 4, "isolbed": 17, "beds_ward": 0, "lat": 14.485867, "lng": 121.028415, "day_0": 21 }, "geometry": { "type": "Point", "coordinates": [ 121.028415, 14.485867 ] } },
{ "type": "Feature", "properties": { "cfname": "OSPITAL NG PARAÑAQUE", "icu": 0, "isolbed": 15, "beds_ward": 10, "lat": 14.5004142, "lng": 120.9911214, "day_0": 25 }, "geometry": { "type": "Point", "coordinates": [ 120.9911214, 14.5004142 ] } },
{ "type": "Feature", "properties": { "cfname": "TRICITY MEDICAL CENTER, INC.", "icu": 0, "isolbed": 16, "beds_ward": 8, "lat": 14.5759284, "lng": 121.0851341, "day_0": 24 }, "geometry": { "type": "Point", "coordinates": [ 121.0851341, 14.5759284 ] } },
{ "type": "Feature", "properties": { "cfname": "BERNARDINO GENERAL HOSPITAL I", "icu": 0, "isolbed": 11, "beds_ward": 19, "lat": 14.7003071, "lng": 121.0349583, "day_0": 30 }, "geometry": { "type": "Point", "coordinates": [ 121.0349583, 14.7003071 ] } },
{ "type": "Feature", "properties": { "cfname": "PASIG CITY GENERAL HOSPITAL", "icu": 20, "isolbed": 62, "beds_ward": 0, "lat": 14.5721964, "lng": 121.0994306, "day_0": 82 }, "geometry": { "type": "Point", "coordinates": [ 121.0994306, 14.5721964 ] } },
{ "type": "Feature", "properties": { "cfname": "NATIONAL CHILDREN?S HOSPITAL", "icu": 13, "isolbed": 77, "beds_ward": 0, "lat": 14.6204405, "lng": 121.0208118, "day_0": 90 }, "geometry": { "type": "Point", "coordinates": [ 121.0208118, 14.6204405 ] } },
{ "type": "Feature", "properties": { "cfname": "ARMY GENERAL HOSPITAL", "icu": 0, "isolbed": 256, "beds_ward": 0, "lat": 14.5309752, "lng": 121.047928, "day_0": 256 }, "geometry": { "type": "Point", "coordinates": [ 121.047928, 14.5309752 ] } },
{ "type": "Feature", "properties": { "cfname": "MARIKINA DOCTORS HOSPITAL AND MEDICAL CENTER, INC.", "icu": 0, "isolbed": 5, "beds_ward": 6, "lat": 14.6210508, "lng": 121.0826439, "day_0": 11 }, "geometry": { "type": "Point", "coordinates": [ 121.0826439, 14.6210508 ] } },
{ "type": "Feature", "properties": { "cfname": "CALOOCAN CITY MEDICAL CENTER", "icu": 0, "isolbed": 25, "beds_ward": 24, "lat": 14.6483425, "lng": 120.9735737, "day_0": 49 }, "geometry": { "type": "Point", "coordinates": [ 120.9735737, 14.6483425 ] } },
{ "type": "Feature", "properties": { "cfname": "DR. FE DEL MUNDO MEDICAL CENTER", "icu": 6, "isolbed": 0, "beds_ward": 38, "lat": 14.6204717, "lng": 121.009294, "day_0": 44 }, "geometry": { "type": "Point", "coordinates": [ 121.009294, 14.6204717 ] } },
{ "type": "Feature", "properties": { "cfname": "ST. VICTORIA HOSPITAL", "icu": 0, "isolbed": 2, "beds_ward": 5, "lat": 14.642167, "lng": 121.094607, "day_0": 7 }, "geometry": { "type": "Point", "coordinates": [ 121.094607, 14.642167 ] } },
{ "type": "Feature", "properties": { "cfname": "PASAY CITY GENERAL HOSPITAL", "icu": 6, "isolbed": 18, "beds_ward": 31, "lat": 14.5492968, "lng": 121.0009273, "day_0": 55 }, "geometry": { "type": "Point", "coordinates": [ 121.0009273, 14.5492968 ] } },
{ "type": "Feature", "properties": { "cfname": "SOUTH SUPERHIGHWAY MEDICAL CENTER", "icu": 0, "isolbed": 0, "beds_ward": 6, "lat": 14.47494, "lng": 121.0448768, "day_0": 6 }, "geometry": { "type": "Point", "coordinates": [ 121.0448768, 14.47494 ] } },
{ "type": "Feature", "properties": { "cfname": "PHILIPPINE CHILDREN?S MEDICAL CENTER", "icu": 79, "isolbed": 1, "beds_ward": 5, "lat": 14.6476963, "lng": 121.0411248, "day_0": 85 }, "geometry": { "type": "Point", "coordinates": [ 121.0411248, 14.6476963 ] } },
{ "type": "Feature", "properties": { "cfname": "RIZAL MEDICAL CENTER", "icu": 18, "isolbed": 115, "beds_ward": 0, "lat": 14.5642422, "lng": 121.0659489, "day_0": 133 }, "geometry": { "type": "Point", "coordinates": [ 121.0659489, 14.5642422 ] } },
{ "type": "Feature", "properties": { "cfname": "CHRIST THE KING MEDICAL CENTER UNIHEALTH LAS PIÑAS, INC.", "icu": 0, "isolbed": 6, "beds_ward": 0, "lat": 14.4589503, "lng": 120.969959, "day_0": 6 }, "geometry": { "type": "Point", "coordinates": [ 120.969959, 14.4589503 ] } },
{ "type": "Feature", "properties": { "cfname": "JUSTICE JOSE ABAD SANTOS GENERAL HOSPITAL", "icu": 0, "isolbed": 66, "beds_ward": 2, "lat": 14.597597, "lng": 120.97194, "day_0": 68 }, "geometry": { "type": "Point", "coordinates": [ 120.97194, 14.597597 ] } },
{ "type": "Feature", "properties": { "cfname": "VICTORIANO LUNA MEDICAL CENTER (formerly AFP MEDICAL CENTER)", "icu": 9, "isolbed": 16, "beds_ward": 149, "lat": 14.6356249, "lng": 121.0526898, "day_0": 174 }, "geometry": { "type": "Point", "coordinates": [ 121.0526898, 14.6356249 ] } },
{ "type": "Feature", "properties": { "cfname": "DR. JOSE FABELLA MEMORIAL HOSPITAL", "icu": 2, "isolbed": 196, "beds_ward": 44, "lat": 14.6062156, "lng": 120.9842759, "day_0": 242 }, "geometry": { "type": "Point", "coordinates": [ 120.9842759, 14.6062156 ] } },
{ "type": "Feature", "properties": { "cfname": "OLIVAREZ GENERAL HOSPITAL", "icu": 2, "isolbed": 15, "beds_ward": 3, "lat": 14.4792298, "lng": 120.9968424, "day_0": 20 }, "geometry": { "type": "Point", "coordinates": [ 120.9968424, 14.4792298 ] } },
{ "type": "Feature", "properties": { "cfname": "FOUNDATION OF OUR LADY OF PEACE MISSION, INC.-OUR LADY OF PE", "icu": 0, "isolbed": 4, "beds_ward": 23, "lat": 14.4933617, "lng": 120.9874388, "day_0": 27 }, "geometry": { "type": "Point", "coordinates": [ 120.9874388, 14.4933617 ] } },
{ "type": "Feature", "properties": { "cfname": "NAVOTAS CITY HOSPITAL", "icu": 0, "isolbed": 2, "beds_ward": 12, "lat": 14.6602329, "lng": 120.9460534, "day_0": 14 }, "geometry": { "type": "Point", "coordinates": [ 120.9460534, 14.6602329 ] } },
{ "type": "Feature", "properties": { "cfname": "OSPITAL NG MALABON", "icu": 0, "isolbed": 11, "beds_ward": 20, "lat": 14.6572718, "lng": 120.950608, "day_0": 31 }, "geometry": { "type": "Point", "coordinates": [ 120.950608, 14.6572718 ] } },
{ "type": "Feature", "properties": { "cfname": "LAS PI?AS DOCTORS HOSPITAL, INC.", "icu": 2, "isolbed": 22, "beds_ward": 10, "lat": 14.4558998, "lng": 120.9942669, "day_0": 34 }, "geometry": { "type": "Point", "coordinates": [ 120.9942669, 14.4558998 ] } },
{ "type": "Feature", "properties": { "cfname": "ST. MARTIN DE PORRES CHARITY HOSPITAL", "icu": 0, "isolbed": 1, "beds_ward": 5, "lat": 14.5991149, "lng": 121.0316903, "day_0": 6 }, "geometry": { "type": "Point", "coordinates": [ 121.0316903, 14.5991149 ] } },
{ "type": "Feature", "properties": { "cfname": "LAS PI?AS GENERAL HOSPITAL & SATELLITE TRAUMA CENTER", "icu": 3, "isolbed": 8, "beds_ward": 57, "lat": 14.4716706, "lng": 120.973806, "day_0": 68 }, "geometry": { "type": "Point", "coordinates": [ 120.973806, 14.4716706 ] } },
{ "type": "Feature", "properties": { "cfname": "STA. TERESITA GENERAL HOSPITAL", "icu": 0, "isolbed": 6, "beds_ward": 0, "lat": 14.6247575, "lng": 121.0024413, "day_0": 6 }, "geometry": { "type": "Point", "coordinates": [ 121.0024413, 14.6247575 ] } },
{ "type": "Feature", "properties": { "cfname": "ALLIED CARE EXPERTS (ACE) MEDICAL CENTER-QUEZON CITY, INC.", "icu": 6, "isolbed": 11, "beds_ward": 13, "lat": 14.6603861, "lng": 121.0172572, "day_0": 30 }, "geometry": { "type": "Point", "coordinates": [ 121.0172572, 14.6603861 ] } },
{ "type": "Feature", "properties": { "cfname": "PHILIPPINE ORTHOPEDIC CENTER", "icu": 0, "isolbed": 12, "beds_ward": 0, "lat": 14.6280361, "lng": 121.0033881, "day_0": 12 }, "geometry": { "type": "Point", "coordinates": [ 121.0033881, 14.6280361 ] } }
]
}
